{
  "devices": {
    "of:0000000000000001": { "basic": { "name": "Banda Aceh", "latitude": 5.5528455, "longitude": 95.3192908 }},
    "of:0000000000000002": { "basic": { "name": "Medan", "latitude": 3.5896654, "longitude": 98.6738261 }},
    "of:0000000000000003": { "basic": { "name": "Pekanbaru", "latitude": 0.5262455, "longitude": 101.4515727 }},
    "of:0000000000000004": { "basic": { "name": "Padang", "latitude": -0.9247587, "longitude": 100.3632561 }},
    "of:0000000000000005": { "basic": { "name": "Jambi", "latitude": -7.8011945, "longitude": 110.364917 }},
    "of:0000000000000006": { "basic": { "name": "Palembang", "latitude": -2.9888297, "longitude": 104.756857 }},
    "of:0000000000000007": { "basic": { "name": "Bengkulu", "latitude": -3.5186763, "longitude": 102.5359834 }},
    "of:0000000000000008": { "basic": { "name": "Bandar Lampung", "latitude": -5.4460713, "longitude": 105.2643742 }},
    "of:0000000000000009": { "basic": { "name": "Serang", "latitude": -6.1169662, "longitude": 106.1518079 }},
    "of:0000000000000010": { "basic": { "name": "Jkt-UT", "latitude": -7.2459717, "longitude": 112.7378266 }},
    "of:0000000000000011": { "basic": { "name": "Jkt-UI", "latitude": -6.3042012, "longitude": 107.307897 }},
    "of:0000000000000012": { "basic": { "name": "Jkt-DIKTI", "latitude": -6.7137044, "longitude": 108.5608483 }},
    "of:0000000000000013": { "basic": { "name": "Bandung", "latitude": -7.8011945, "longitude": 110.364917 }},
    "of:0000000000000014": { "basic": { "name": "Semarang", "latitude": -7.2459717, "longitude": 112.7378266 }},
    "of:0000000000000015": { "basic": { "name": "Jogja", "latitude": -6.3042012, "longitude": 107.307897 }},
    "of:0000000000000016": { "basic": { "name": "Surabaya", "latitude": -6.7137044, "longitude": 108.5608483 }},
    "of:0000000000000017": { "basic": { "name": "Malang", "latitude": -7.8011945, "longitude": 110.364917 }},
    "of:0000000000000018": { "basic": { "name": "Denpasar", "latitude": -7.2459717, "longitude": 112.7378266 }},
    "of:0000000000000019": { "basic": { "name": "Mataram", "latitude": -6.3042012, "longitude": 107.307897 }},
    "of:0000000000000020": { "basic": { "name": "Pontianak", "latitude": -6.7137044, "longitude": 108.5608483 }},
    "of:0000000000000021": { "basic": { "name": "Samarinda", "latitude": -7.8011945, "longitude": 110.364917 }},
    "of:0000000000000022": { "basic": { "name": "UNLAM", "latitude": -7.2459717, "longitude": 112.7378266 }},
    "of:0000000000000023": { "basic": { "name": "Palangkaraya", "latitude": -6.3042012, "longitude": 107.307897 }},
    "of:0000000000000024": { "basic": { "name": "Makassar", "latitude": -6.7137044, "longitude": 108.5608483 }},
    "of:0000000000000025": { "basic": { "name": "Kendari", "latitude": -7.8011945, "longitude": 110.364917 }},
    "of:0000000000000026": { "basic": { "name": "Palu", "latitude": -7.2459717, "longitude": 112.7378266 }},
    "of:0000000000000027": { "basic": { "name": "Gorontalo", "latitude": -6.3042012, "longitude": 107.307897 }},
    "of:0000000000000028": { "basic": { "name": "Manado", "latitude": -6.7137044, "longitude": 108.5608483 }},
    "of:0000000000000029": { "basic": { "name": "Ambon", "latitude": -7.8011945, "longitude": 110.364917 }},
    "of:0000000000000030": { "basic": { "name": "Ternate", "latitude": -7.2459717, "longitude": 112.7378266 }},
    "of:0000000000000031": { "basic": { "name": "Tuah", "latitude": -6.3042012, "longitude": 107.307897 }},
    "of:0000000000000032": { "basic": { "name": "Kupang", "latitude": -6.7137044, "longitude": 108.5608483 }},
    "of:0000000000000033": { "basic": { "name": "Manukwari", "latitude": -7.8011945, "longitude": 110.364917 }},
    "of:0000000000000034": { "basic": { "name": "Jayapura", "latitude": -7.2459717, "longitude": 112.7378266 }},
    "of:0000000000000035": { "basic": { "name": "OpenIXP", "latitude": -6.3042012, "longitude": 107.307897 }}
  },

  "hosts": {
    "00:00:00:00:00:01/-1": { "basic": { "locations": ["of:0000000000000001/1"], "name": "Lhoks-Unimal", "ips": ["10.1.0.1"], "latitude": -6.89060785, "longitude": 107.610323477783 }},
    "00:00:00:00:00:02/-1": { "basic": { "locations": ["of:0000000000000001/2"], "name": "Unimed", "ips": ["10.1.0.2"], "latitude": -6.60006525, "longitude": 106.806668572606 }},
    "00:00:00:00:00:03/-1": { "basic": { "locations": ["of:0000000000000002/1"], "name": "Batam", "ips": ["10.2.0.3"], "latitude": -7.9517538, "longitude": 112.613968982353 }},
    "00:00:00:00:00:04/-1": { "basic": { "locations": ["of:0000000000000002/2"], "name": "Pdo-UNP", "ips": ["10.2.0.4"], "latitude": -8.6524973, "longitude": 115.2191175 }},
    "00:00:00:00:00:05/-1": { "basic": { "locations": ["of:0000000000000003/1"], "name": "Pdg-STSI", "ips": ["10.3.0.5"], "latitude": -5.3645036, "longitude": 105.241666974735 }},
    "00:00:00:00:00:06/-1": { "basic": { "locations": ["of:0000000000000003/2"], "name": "Pyk-Politani", "ips": ["10.3.0.6"], "latitude": -6.19404975, "longitude": 106.847664484124 }},
    "00:00:00:00:00:07/-1": { "basic": { "locations": ["of:0000000000000004/1"], "name": "PolSri", "ips": ["10.1.0.2"], "latitude": -6.60006525, "longitude": 106.806668572606 }},
    "00:00:00:00:00:08/-1": { "basic": { "locations": ["of:0000000000000004/2"], "name": "SuLiat-UBB", "ips": ["10.2.0.3"], "latitude": -7.9517538, "longitude": 112.613968982353 }},
    "00:00:00:00:00:09/-1": { "basic": { "locations": ["of:0000000000000005/1"], "name": "Bogor", "ips": ["10.2.0.4"], "latitude": -8.6524973, "longitude": 115.2191175 }},
    "00:00:00:00:00:10/-1": { "basic": { "locations": ["of:0000000000000005/2"], "name": "Bogor", "ips": ["10.3.0.5"], "latitude": -5.3645036, "longitude": 105.241666974735 }},
    "00:00:00:00:00:11/-1": { "basic": { "locations": ["of:0000000000000006/1"], "name": "Unpad", "ips": ["10.3.0.6"], "latitude": -6.19404975, "longitude": 106.847664484124 }},
    "00:00:00:00:00:12/-1": { "basic": { "locations": ["of:0000000000000006/2"], "name": "Purwokerto", "ips": ["10.1.0.2"], "latitude": -6.60006525, "longitude": 106.806668572606 }},
    "00:00:00:00:00:13/-1": { "basic": { "locations": ["of:0000000000000007/1"], "name": "Solo", "ips": ["10.2.0.3"], "latitude": -7.9517538, "longitude": 112.613968982353 }},
    "00:00:00:00:00:14/-1": { "basic": { "locations": ["of:0000000000000007/2"], "name": "Unesa", "ips": ["10.2.0.4"], "latitude": -8.6524973, "longitude": 115.2191175 }},
    "00:00:00:00:00:15/-1": { "basic": { "locations": ["of:0000000000000008/1"], "name": "Jember", "ips": ["10.3.0.5"], "latitude": -5.3645036, "longitude": 105.241666974735 }},
    "00:00:00:00:00:16/-1": { "basic": { "locations": ["of:0000000000000008/2"], "name": "Bangkalan", "ips": ["10.3.0.6"], "latitude": -6.19404975, "longitude": 106.847664484124 }},
    "00:00:00:00:00:17/-1": { "basic": { "locations": ["of:0000000000000009/1"], "name": "ISI.Dps", "ips": ["10.1.0.2"], "latitude": -6.60006525, "longitude": 106.806668572606 }},
    "00:00:00:00:00:18/-1": { "basic": { "locations": ["of:0000000000000009/2"], "name": "Singaraja", "ips": ["10.2.0.3"], "latitude": -7.9517538, "longitude": 112.613968982353 }},
    "00:00:00:00:00:19/-1": { "basic": { "locations": ["of:0000000000000010/1"], "name": "BjMsn.Poliban", "ips": ["10.2.0.4"], "latitude": -8.6524973, "longitude": 115.2191175 }},
    "00:00:00:00:00:20/-1": { "basic": { "locations": ["of:0000000000000010/2"], "name": "Trk.U.Borneo", "ips": ["10.3.0.5"], "latitude": -5.3645036, "longitude": 105.241666974735 }},
    "00:00:00:00:00:21/-1": { "basic": { "locations": ["of:0000000000000011/1"], "name": "Pangkep", "ips": ["10.3.0.6"], "latitude": -6.19404975, "longitude": 106.847664484124 }},
    "00:00:00:00:00:22/-1": { "basic": { "locations": ["of:0000000000000011/2"], "name": "Unima Tomohon", "ips": ["10.1.0.2"], "latitude": -6.60006525, "longitude": 106.806668572606 }}
  }
}
