{
  "devices": {
    "of:0000000000000001": { "basic": { "name": "Banda Aceh", "latitude": 5.5528455, "longitude": 95.3192908 }},
    "of:0000000000000002": { "basic": { "name": "Medan", "latitude": 3.5896654, "longitude": 98.6738261 }},
    "of:0000000000000003": { "basic": { "name": "Pekanbaru", "latitude": 0.5262455, "longitude": 101.4515727 }},
    "of:0000000000000004": { "basic": { "name": "Padang", "latitude": -0.6247587, "longitude": 100.3632561 }},
    "of:0000000000000005": { "basic": { "name": "Jambi", "latitude": -0.930092, "longitude": 103.446567 }},
    "of:0000000000000006": { "basic": { "name": "Palembang", "latitude": -2.9888297, "longitude": 104.756857 }},
    "of:0000000000000007": { "basic": { "name": "Bengkulu", "latitude": -3.5186763, "longitude": 102.5359834 }},
    "of:0000000000000008": { "basic": { "name": "Bandar Lampung", "latitude": -5.4460713, "longitude": 105.2643742 }},
    "of:0000000000000009": { "basic": { "name": "Serang", "latitude": -6.1169662, "longitude": 106.1518079 }},
    "of:0000000000000010": { "basic": { "name": "Jkt-UT", "latitude": -6.583507, "longitude": 106.728178 }},
    "of:0000000000000011": { "basic": { "name": "Jkt-UI", "latitude": -6.2241085, "longitude":106.847664484124 }},
    "of:0000000000000012": { "basic": { "name": "Jkt-DIKTI", "latitude": -6.0041085, "longitude": 106.803352500145 }},
    "of:0000000000000013": { "basic": { "name": "Bandung", "latitude": -6.9344694, "longitude": 107.6049539 }},
    "of:0000000000000014": { "basic": { "name": "Semarang", "latitude": -6.9903988, "longitude": 110.4229104 }},
    "of:0000000000000015": { "basic": { "name": "Jogja", "latitude": -7.8011945, "longitude": 110.364917 }},
    "of:0000000000000016": { "basic": { "name": "Surabaya", "latitude": -7.2459717, "longitude": 112.7378266 }},
    "of:0000000000000017": { "basic": { "name": "Malang", "latitude": -7.9771206, "longitude": 112.6340291 }},
    "of:0000000000000018": { "basic": { "name": "Denpasar", "latitude": -8.6524973, "longitude": 115.2191175 }},
    "of:0000000000000019": { "basic": { "name": "Mataram", "latitude": -8.5837726, "longitude": 116.10685 }},
    "of:0000000000000020": { "basic": { "name": "Pontianak", "latitude": -0.0226903, "longitude": 109.3447488 }},
    "of:0000000000000021": { "basic": { "name": "Samarinda", "latitude": -0.5017804, "longitude": 117.1393089 }},
    "of:0000000000000022": { "basic": { "name": "UNLAM", "latitude": -3.00697605, "longitude": 114.585990095245 }},
    "of:0000000000000023": { "basic": { "name": "Palangkaraya", "latitude": -2.2072919, "longitude": 113.9164372 }},
    "of:000000000000000a": { "basic": { "name": "Makassar", "latitude": -5.1342962, "longitude": 119.4124282 }},
    "of:000000000000000b": { "basic": { "name": "Kendari", "latitude": -3.9918068, "longitude": 122.5180066 }},
    "of:000000000000000c": { "basic": { "name": "Palu", "latitude": -0.8957793, "longitude": 119.8679974 }},
    "of:000000000000000d": { "basic": { "name": "Gorontalo", "latitude": 0.5384433, "longitude": 123.0594971 }},
    "of:000000000000000e": { "basic": { "name": "Manado", "latitude": 1.4900578, "longitude": 126.8408708 }},
    "of:000000000000000f": { "basic": { "name": "Ambon", "latitude": -3.6959434, "longitude": 128.178785 }},
    "of:000000000000001a": { "basic": { "name": "Ternate", "latitude": 0.7852331, "longitude": 127.3831973 }},
    "of:000000000000001b": { "basic": { "name": "Tuah", "latitude": -3.702023, "longitude": 131.220099 }},
    "of:000000000000001c": { "basic": { "name": "Kupang", "latitude": -10.1632209, "longitude": 123.6017755 }},
    "of:000000000000001d": { "basic": { "name": "Manokwari", "latitude": -0.8614456, "longitude": 134.0767324 }},
    "of:000000000000001e": { "basic": { "name": "Jayapura", "latitude": -2.6490556, "longitude": 140.812624973281 }},
    "of:000000000000001f": { "basic": { "name": "OpenIXP", "latitude": -5.149351, "longitude": 106.968884 }}
  },

  "hosts": {
    "00:00:00:00:00:01/-1": { "basic": { "locations": ["of:0000000000000001/1"], "name": "Lhoks-Unimal", "ips": ["10.1.0.1"], "latitude": 5.23234885, "longitude": 96.9845532398596 }},
    "00:00:00:00:00:02/-1": { "basic": { "locations": ["of:0000000000000001/2"], "name": "Unimed", "ips": ["10.1.0.2"], "latitude": 3.306250, "longitude": 98.716125 }},
    "00:00:00:00:00:03/-1": { "basic": { "locations": ["of:0000000000000002/1"], "name": "Batam", "ips": ["10.2.0.3"], "latitude": 1.1061034, "longitude": 104.0378246 }},
    "00:00:00:00:00:04/-1": { "basic": { "locations": ["of:0000000000000002/2"], "name": "Pdo-UNP", "ips": ["10.2.0.4"], "latitude": -0.898208, "longitude": 100.350086 }},
    "00:00:00:00:00:05/-1": { "basic": { "locations": ["of:0000000000000003/1"], "name": "Pdg-STSI", "ips": ["10.3.0.5"], "latitude": -0.469253, "longitude": 100.407801 }},
    "00:00:00:00:00:06/-1": { "basic": { "locations": ["of:0000000000000003/2"], "name": "Pyk-Politani", "ips": ["10.3.0.6"], "latitude": -0.169853, "longitude": 100.664087 }},
    "00:00:00:00:00:07/-1": { "basic": { "locations": ["of:0000000000000004/1"], "name": "PolSri", "ips": ["10.4.0.7"], "latitude": -2.983385, "longitude": 104.733091 }},
    "00:00:00:00:00:08/-1": { "basic": { "locations": ["of:0000000000000004/2"], "name": "SuLiat-UBB", "ips": ["10.4.0.8"], "latitude": -2.070912, "longitude": 106.078474 }},
    "00:00:00:00:00:09/-1": { "basic": { "locations": ["of:0000000000000005/1"], "name": "Bogor", "ips": ["10.5.0.9"], "latitude": -6.802749, "longitude": 106.449599 }},
    "00:00:00:00:00:10/-1": { "basic": { "locations": ["of:0000000000000005/2"], "name": "Bogor", "ips": ["10.5.0.10"], "latitude": -6.621521, "longitude": 106.792967 }},
    "00:00:00:00:00:11/-1": { "basic": { "locations": ["of:0000000000000006/1"], "name": "Unpad", "ips": ["10.6.0.11"], "latitude": -6.925573, "longitude": 107.776147 }},
    "00:00:00:00:00:12/-1": { "basic": { "locations": ["of:0000000000000006/2"], "name": "Purwokerto", "ips": ["10.6.0.12"], "latitude": -7.425254, "longitude": 109.242492 }},
    "00:00:00:00:00:13/-1": { "basic": { "locations": ["of:0000000000000007/1"], "name": "Solo", "ips": ["10.7.0.13"], "latitude": -7.554785, "longitude": 110.825249 }},
    "00:00:00:00:00:14/-1": { "basic": { "locations": ["of:0000000000000007/2"], "name": "Unesa", "ips": ["10.7.0.14"], "latitude": -7.501315, "longitude": 112.673411 }},
    "00:00:00:00:00:15/-1": { "basic": { "locations": ["of:0000000000000008/1"], "name": "Jember", "ips": ["10.8.0.15"], "latitude": -8.177626, "longitude": 113.691573 }},
    "00:00:00:00:00:16/-1": { "basic": { "locations": ["of:0000000000000008/2"], "name": "Bangkalan", "ips": ["10.8.0.16"], "latitude": -7.042063, "longitude":  114.725768 }},
    "00:00:00:00:00:17/-1": { "basic": { "locations": ["of:0000000000000009/1"], "name": "ISI.Dps", "ips": ["10.9.0.17"], "latitude": -8.403961, "longitude": 115.232403 }},
    "00:00:00:00:00:18/-1": { "basic": { "locations": ["of:0000000000000009/2"], "name": "Singaraja", "ips": ["10.9.0.18"], "latitude": -8.035357, "longitude":  115.145961 }},
    "00:00:00:00:00:19/-1": { "basic": { "locations": ["of:0000000000000010/1"], "name": "BjMsn.Poliban", "ips": ["10.10.0.19"], "latitude": -3.295699, "longitude": 114.582435 }},
    "00:00:00:00:00:20/-1": { "basic": { "locations": ["of:0000000000000010/2"], "name": "Trk.U.Borneo", "ips": ["10.10.0.20"], "latitude": 3.336242, "longitude": 117.648918 }},
    "00:00:00:00:00:21/-1": { "basic": { "locations": ["of:0000000000000011/1"], "name": "Pangkep", "ips": ["10.11.0.21"], "latitude": -5.640214, "longitude": 119.565917 }},
    "00:00:00:00:00:22/-1": { "basic": { "locations": ["of:0000000000000011/2"], "name": "Unima Tomohon", "ips": ["10.11.0.22"], "latitude": 1.436095, "longitude": 124.847355 }}
  }
}
